"대여소번호","대여소이름","GU","ADDRESS","lat","long","행정동코드","행정동명","시군구명","접근성","위험도","cluster"
1127,"화곡역(에이스정형외과앞) 버스정류장 대여소","강서구","서울특별시 강서구 화곡로 157",37.540981,126.838547,11500540,"화곡1동","강서구",67.29471225,4115.85336152779,8
1128,"화곡역 6번출구 대여소","강서구","서울특별시 강서구 화곡로 지하 168",37.541412,126.840225,11500540,"화곡1동","강서구",63.89346775,4115.85336152779,8
1145,"곰달래 문화복지센터 1-2 대여소","강서구","서울특별시 강서구 강서로5길 50",37.528919,126.848083,11500540,"화곡1동","강서구",71.0571778,4115.85336152779,8
2711,"가로공원공영주차장 1번 출구 대여소","강서구","강서구 가로공원로 193",37.537361,126.837448,11500540,"화곡1동","강서구",68.7618652,4115.85336152779,8
2712,"화곡터널입구교차로 대여소","강서구","강서구 가로공원로 238",37.538338,126.842392,11500540,"화곡1동","강서구",57.0147965,4115.85336152779,8
2737,"까치산역 3번 출구 대여소","강서구","강서로 45",37.531693,126.846588,11500540,"화곡1동","강서구",58.01501085,4115.85336152779,8
